Time,location,name,latitude,longitude
7,home,home,-22.821710155813086,-47.07402914943809
8,Ciclo Básico I,Ciclo Básico I,-22.8174692,-47.0687345
12,Restaurante Universitário,Restaurante Universitário,-22.8176453,-47.0721495
14,Faculdade de Engenharia Elétrica e de Computação,Faculdade de Engenharia Elétrica e de Computação,-22.8211718,-47.0661905
16,Instituto de Computação,Instituto de Computação,-22.8155457,-47.0672998
18,home,home,-22.821710155813086,-47.07402914943809
